[
    {
        "model": "repository.station",
        "pk": 1,
        "fields": {
            "code": "AAFM",
            "network": "IA",
            "name": "AlorSelatan",
            "latitude": "-8.2734",
            "longitude": "124.7237",
            "elevation": null,
            "created_at": "2025-02-06 11:35:03"
        }
    },
    {
        "model": "repository.station",
        "pk": 2,
        "fields": {
            "code": "AAI",
            "network": "IA",
            "name": "Ambon",
            "latitude": "-3.6871",
            "longitude": "128.1943",
            "elevation": null,
            "created_at": "2025-02-06 11:35:03"
        }
    },
    {
        "model": "repository.station",
        "pk": 3,
        "fields": {
            "code": "AAII",
            "network": "IA",
            "name": "Ambon",
            "latitude": "-3.6871",
            "longitude": "128.194",
            "elevation": null,
            "created_at": "2025-02-06 11:35:03"
        }
    },
    {
        "model": "repository.station",
        "pk": 4,
        "fields": {
            "code": "ABJI",
            "network": "IA",
            "name": "AsemBagus",
            "latitude": "-7.7956",
            "longitude": "114.234",
            "elevation": null,
            "created_at": "2025-02-06 11:35:03"
        }
    },
    {
        "model": "repository.station",
        "pk": 5,
        "fields": {
            "code": "ABSM",
            "network": "IA",
            "name": "Argamakmur",
            "latitude": "-3.4254",
            "longitude": "102.262",
            "elevation": null,
            "created_at": "2025-02-06 11:35:03"
        }
    },
    {
        "model": "repository.station",
        "pk": 6,
        "fields": {
            "code": "ACBM",
            "network": "IA",
            "name": "Ayyu",
            "latitude": "-7.029754",
            "longitude": "107.682833",
            "elevation": null,
            "created_at": "2025-02-06 11:35:03"
        }
    },
    {
        "model": "repository.station",
        "pk": 7,
        "fields": {
            "code": "ACJM",
            "network": "IA",
            "name": "Astanajapura",
            "latitude": "-6.8033",
            "longitude": "108.6151",
            "elevation": null,
            "created_at": "2025-02-06 11:35:03"
        }
    },
    {
        "model": "repository.station",
        "pk": 8,
        "fields": {
            "code": "ALKI",
            "network": "IA",
            "name": "Alor",
            "latitude": "-8.1445",
            "longitude": "124.5903",
            "elevation": null,
            "created_at": "2025-02-06 11:35:03"
        }
    },
    {
        "model": "repository.station",
        "pk": 9,
        "fields": {
            "code": "ALTI",
            "network": "IA",
            "name": "AlorTimur",
            "latitude": "-8.2904",
            "longitude": "125.1262",
            "elevation": null,
            "created_at": "2025-02-06 11:35:03"
        }
    },
    {
        "model": "repository.station",
        "pk": 10,
        "fields": {
            "code": "AMPM",
            "network": "IA",
            "name": "Aifat",
            "latitude": "-1.2675",
            "longitude": "132.4918",
            "elevation": null,
            "created_at": "2025-02-06 11:35:03"
        }
    },
    {
        "model": "repository.station",
        "pk": 11,
        "fields": {
            "code": "ANAPI",
            "network": "IA",
            "name": "Anggi",
            "latitude": "-1.323",
            "longitude": "133.912",
            "elevation": null,
            "created_at": "2025-02-06 11:35:03"
        }
    },
    {
        "model": "repository.station",
        "pk": 12,
        "fields": {
            "code": "APSI",
            "network": "IA",
            "name": "Ampana",
            "latitude": "-0.9108",
            "longitude": "121.6487",
            "elevation": null,
            "created_at": "2025-02-06 11:35:03"
        }
    },
    {
        "model": "repository.station",
        "pk": 13,
        "fields": {
            "code": "APSSI",
            "network": "IA",
            "name": "Air Periukan",
            "latitude": "-3.932",
            "longitude": "102.465",
            "elevation": null,
            "created_at": "2025-02-06 11:35:03"
        }
    },
    {
        "model": "repository.station",
        "pk": 14,
        "fields": {
            "code": "ARKPI",
            "network": "IA",
            "name": "Arso4",
            "latitude": "-2.783",
            "longitude": "140.592",
            "elevation": null,
            "created_at": "2025-02-06 11:35:03"
        }
    },
    {
        "model": "repository.station",
        "pk": 15,
        "fields": {
            "code": "ARMI",
            "network": "IA",
            "name": "Aru",
            "latitude": "-5.7749",
            "longitude": "134.2190",
            "elevation": null,
            "created_at": "2025-02-06 11:35:03"
        }
    },
    {
        "model": "repository.station",
        "pk": 16,
        "fields": {
            "code": "ARPI",
            "network": "IA",
            "name": "Arso",
            "latitude": "-2.9014",
            "longitude": "140.7561",
            "elevation": null,
            "created_at": "2025-02-06 11:35:03"
        }
    },
    {
        "model": "repository.station",
        "pk": 17,
        "fields": {
            "code": "ARSKI",
            "network": "IA",
            "name": "Arjasa",
            "latitude": "-6.85843",
            "longitude": "115.286",
            "elevation": null,
            "created_at": "2025-02-06 11:35:03"
        }
    },
    {
        "model": "repository.station",
        "pk": 18,
        "fields": {
            "code": "ASTTI",
            "network": "IA",
            "name": "AmanubanSelatan",
            "latitude": "-10.068",
            "longitude": "124.299",
            "elevation": null,
            "created_at": "2025-02-06 11:35:03"
        }
    },
    {
        "model": "repository.station",
        "pk": 19,
        "fields": {
            "code": "ATKTI",
            "network": "IA",
            "name": "AmfoangTimur",
            "latitude": "-9.425",
            "longitude": "124.090",
            "elevation": null,
            "created_at": "2025-02-06 11:35:03"
        }
    },
    {
        "model": "repository.station",
        "pk": 20,
        "fields": {
            "code": "ATNI",
            "network": "IA",
            "name": "Atambua",
            "latitude": "-9.0835",
            "longitude": "124.8644",
            "elevation": null,
            "created_at": "2025-02-06 11:35:03"
        }
    },
    {
        "model": "repository.station",
        "pk": 21,
        "fields": {
            "code": "BAJI",
            "network": "IA",
            "name": "Socah",
            "latitude": "-7.09057",
            "longitude": "112.70853",
            "elevation": null,
            "created_at": "2025-02-06 11:35:03"
        }
    },
    {
        "model": "repository.station",
        "pk": 22,
        "fields": {
            "code": "BAKI",
            "network": "IA",
            "name": "Biak",
            "latitude": "-1.1915",
            "longitude": "136.107",
            "elevation": null,
            "created_at": "2025-02-06 11:35:03"
        }
    },
    {
        "model": "repository.station",
        "pk": 23,
        "fields": {
            "code": "BAPJI",
            "network": "IA",
            "name": "Badegan",
            "latitude": "-7.912",
            "longitude": "111.305",
            "elevation": null,
            "created_at": "2025-02-06 11:35:03"
        }
    },
    {
        "model": "repository.station",
        "pk": 24,
        "fields": {
            "code": "BASAI",
            "network": "IA",
            "name": "PulauBanyakBarat",
            "latitude": "2.307",
            "longitude": "97.407",
            "elevation": null,
            "created_at": "2025-02-06 11:35:03"
        }
    },
    {
        "model": "repository.station",
        "pk": 25,
        "fields": {
            "code": "BASI",
            "network": "IA",
            "name": "Baing",
            "latitude": "-10.2189",
            "longitude": "120.5777",
            "elevation": null,
            "created_at": "2025-02-06 11:35:03"
        }
    },
    {
        "model": "repository.station",
        "pk": 26,
        "fields": {
            "code": "BATI",
            "network": "IA",
            "name": "Baumata",
            "latitude": "-10.2065",
            "longitude": "123.6633",
            "elevation": null,
            "created_at": "2025-02-06 11:35:03"
        }
    },
    {
        "model": "repository.station",
        "pk": 27,
        "fields": {
            "code": "BATPI",
            "network": "IA",
            "name": "Babo",
            "latitude": "-2.5427",
            "longitude": "133.4455",
            "elevation": null,
            "created_at": "2025-02-06 11:35:03"
        }
    },
    {
        "model": "repository.station",
        "pk": 28,
        "fields": {
            "code": "BBBCM",
            "network": "IA",
            "name": "BontoBahari",
            "latitude": "-5.5772",
            "longitude": "120.4481",
            "elevation": null,
            "created_at": "2025-02-06 11:35:03"
        }
    },
    {
        "model": "repository.station",
        "pk": 29,
        "fields": {
            "code": "BBCI",
            "network": "IA",
            "name": "Biau",
            "latitude": "1.15803",
            "longitude": "121.436",
            "elevation": null,
            "created_at": "2025-02-06 11:35:03"
        }
    },
    {
        "model": "repository.station",
        "pk": 30,
        "fields": {
            "code": "BBCM",
            "network": "IA",
            "name": "Bontocani",
            "latitude": "-5.0392",
            "longitude": "120.058",
            "elevation": null,
            "created_at": "2025-02-06 11:35:03"
        }
    },
    {
        "model": "repository.station",
        "pk": 31,
        "fields": {
            "code": "BBJI",
            "network": "IA",
            "name": "Bungbulang",
            "latitude": "-7.5557",
            "longitude": "107.815",
            "elevation": null,
            "created_at": "2025-02-06 11:35:03"
        }
    },
    {
        "model": "repository.station",
        "pk": 32,
        "fields": {
            "code": "BBJM",
            "network": "IA",
            "name": "Bubulan",
            "latitude": "-7.326",
            "longitude": "111.8099",
            "elevation": null,
            "created_at": "2025-02-06 11:35:03"
        }
    },
    {
        "model": "repository.station",
        "pk": 33,
        "fields": {
            "code": "BBLSI",
            "network": "IA",
            "name": "Banggai-Tengah",
            "latitude": "-1.637539",
            "longitude": "123.52168",
            "elevation": null,
            "created_at": "2025-02-06 11:35:03"
        }
    },
    {
        "model": "repository.station",
        "pk": 34,
        "fields": {
            "code": "BBSI",
            "network": "IA",
            "name": "BauBau",
            "latitude": "-5.4885",
            "longitude": "122.5695",
            "elevation": null,
            "created_at": "2025-02-06 11:35:03"
        }
    },
    {
        "model": "repository.station",
        "pk": 35,
        "fields": {
            "code": "BDBI",
            "network": "IA",
            "name": "Badung",
            "latitude": "-8.520029",
            "longitude": "115.208717",
            "elevation": null,
            "created_at": "2025-02-06 11:35:03"
        }
    },
    {
        "model": "repository.station",
        "pk": 36,
        "fields": {
            "code": "BDCM",
            "network": "IA",
            "name": "BanawaSelatan",
            "latitude": "-0.873",
            "longitude": "119.5867",
            "elevation": null,
            "created_at": "2025-02-06 11:35:03"
        }
    },
    {
        "model": "repository.station",
        "pk": 37,
        "fields": {
            "code": "BDMUI",
            "network": "IA",
            "name": "PulauBatangDua",
            "latitude": "1.322",
            "longitude": "126.362",
            "elevation": null,
            "created_at": "2025-02-06 11:35:03"
        }
    },
    {
        "model": "repository.station",
        "pk": 38,
        "fields": {
            "code": "BESI",
            "network": "IA",
            "name": "Bukit",
            "latitude": "4.6355",
            "longitude": "96.8396",
            "elevation": null,
            "created_at": "2025-02-06 11:35:03"
        }
    },
    {
        "model": "repository.station",
        "pk": 39,
        "fields": {
            "code": "BESM",
            "network": "IA",
            "name": "Beutong",
            "latitude": "4.2171",
            "longitude": "96.6557",
            "elevation": null,
            "created_at": "2025-02-06 11:35:03"
        }
    },
    {
        "model": "repository.station",
        "pk": 40,
        "fields": {
            "code": "BGASI",
            "network": "IA",
            "name": "BlangKejeren",
            "latitude": "3.983",
            "longitude": "97.315",
            "elevation": null,
            "created_at": "2025-02-06 11:35:03"
        }
    },
    {
        "model": "repository.station",
        "pk": 41,
        "fields": {
            "code": "BGCI",
            "network": "IA",
            "name": "Balantak",
            "latitude": "-0.8816",
            "longitude": "123.3911",
            "elevation": null,
            "created_at": "2025-02-06 11:35:03"
        }
    },
    {
        "model": "repository.station",
        "pk": 42,
        "fields": {
            "code": "BGCM",
            "network": "IA",
            "name": "Balaesang",
            "latitude": "-0.0804",
            "longitude": "119.858",
            "elevation": null,
            "created_at": "2025-02-06 11:35:03"
        }
    },
    {
        "model": "repository.station",
        "pk": 43,
        "fields": {
            "code": "BHCM",
            "network": "IA",
            "name": "Bahodopi",
            "latitude": "-2.7965",
            "longitude": "122.1259",
            "elevation": null,
            "created_at": "2025-02-06 11:35:03"
        }
    },
    {
        "model": "repository.station",
        "pk": 44,
        "fields": {
            "code": "BKASI",
            "network": "IA",
            "name": "GAWBukitKoto",
            "latitude": "-0.202",
            "longitude": "100.318",
            "elevation": null,
            "created_at": "2025-02-06 11:35:03"
        }
    },
    {
        "model": "repository.station",
        "pk": 45,
        "fields": {
            "code": "BKB",
            "network": "IA",
            "name": "Balikpapan",
            "latitude": "-1.1073",
            "longitude": "116.9048",
            "elevation": null,
            "created_at": "2025-02-06 11:35:03"
        }
    },
    {
        "model": "repository.station",
        "pk": 46,
        "fields": {
            "code": "BKJI",
            "network": "IA",
            "name": "Banjar",
            "latitude": "-7.3633",
            "longitude": "108.5322",
            "elevation": null,
            "created_at": "2025-02-06 11:35:03"
        }
    },
    {
        "model": "repository.station",
        "pk": 47,
        "fields": {
            "code": "BKNI",
            "network": "IA",
            "name": "Bangkinang",
            "latitude": "0.3264",
            "longitude": "101.0396",
            "elevation": null,
            "created_at": "2025-02-06 11:35:03"
        }
    },
    {
        "model": "repository.station",
        "pk": 48,
        "fields": {
            "code": "BKSI",
            "network": "IA",
            "name": "Bulukumba",
            "latitude": "-5.3218",
            "longitude": "120.1224",
            "elevation": null,
            "created_at": "2025-02-06 11:35:03"
        }
    },
    {
        "model": "repository.station",
        "pk": 49,
        "fields": {
            "code": "BLCM",
            "network": "IA",
            "name": "BalaesangTanjung",
            "latitude": "-0.123",
            "longitude": "119.687",
            "elevation": null,
            "created_at": "2025-02-06 11:35:03"
        }
    },
    {
        "model": "repository.station",
        "pk": 50,
        "fields": {
            "code": "BLJI",
            "network": "IA",
            "name": "Banyuglugur",
            "latitude": "-7.7454",
            "longitude": "113.595",
            "elevation": null,
            "created_at": "2025-02-06 11:35:03"
        }
    },
    {
        "model": "repository.station",
        "pk": 51,
        "fields": {
            "code": "BLSM",
            "network": "IA",
            "name": "BatukuningLakitanUlu",
            "latitude": "-2.7563",
            "longitude": "102.156",
            "elevation": null,
            "created_at": "2025-02-06 11:35:03"
        }
    },
    {
        "model": "repository.station",
        "pk": 52,
        "fields": {
            "code": "BMBNG",
            "network": "IA",
            "name": "Ternadi",
            "latitude": "-6.6634",
            "longitude": "110.8839",
            "elevation": null,
            "created_at": "2025-02-06 11:35:03"
        }
    },
    {
        "model": "repository.station",
        "pk": 53,
        "fields": {
            "code": "BMSI",
            "network": "IA",
            "name": "Bangko",
            "latitude": "-2.06641",
            "longitude": "102.31544",
            "elevation": null,
            "created_at": "2025-02-06 11:35:03"
        }
    },
    {
        "model": "repository.station",
        "pk": 54,
        "fields": {
            "code": "BNDI",
            "network": "IA",
            "name": "Bandaneira",
            "latitude": "-4.5224",
            "longitude": "129.9045",
            "elevation": null,
            "created_at": "2025-02-06 11:35:03"
        }
    },
    {
        "model": "repository.station",
        "pk": 55,
        "fields": {
            "code": "BNSI",
            "network": "IA",
            "name": "Bone",
            "latitude": "-4.4005",
            "longitude": "120.1065",
            "elevation": null,
            "created_at": "2025-02-06 11:35:03"
        }
    },
    {
        "model": "repository.station",
        "pk": 56,
        "fields": {
            "code": "BNTI",
            "network": "IA",
            "name": "Bajawa",
            "latitude": "-8.7881",
            "longitude": "120.9768",
            "elevation": null,
            "created_at": "2025-02-06 11:35:03"
        }
    },
    {
        "model": "repository.station",
        "pk": 57,
        "fields": {
            "code": "BOJI",
            "network": "IA",
            "name": "Sawit",
            "latitude": "-7.56815",
            "longitude": "110.68936",
            "elevation": null,
            "created_at": "2025-02-06 11:35:03"
        }
    },
    {
        "model": "repository.station",
        "pk": 58,
        "fields": {
            "code": "BOSM",
            "network": "IA",
            "name": "BandingAgung",
            "latitude": "-4.8213",
            "longitude": "104.162",
            "elevation": null,
            "created_at": "2025-02-06 11:35:03"
        }
    },
    {
        "model": "repository.station",
        "pk": 59,
        "fields": {
            "code": "BPMJM",
            "network": "IA",
            "name": "Batumarmar",
            "latitude": "-6.9505",
            "longitude": "113.4922",
            "elevation": null,
            "created_at": "2025-02-06 11:35:03"
        }
    },
    {
        "model": "repository.station",
        "pk": 60,
        "fields": {
            "code": "BPSM",
            "network": "IA",
            "name": "Bayang",
            "latitude": "-1.1894",
            "longitude": "100.5899",
            "elevation": null,
            "created_at": "2025-02-06 11:35:03"
        }
    },
    {
        "model": "repository.station",
        "pk": 61,
        "fields": {
            "code": "BSI",
            "network": "IA",
            "name": "BandaAceh",
            "latitude": "5.4964",
            "longitude": "95.2962",
            "elevation": null,
            "created_at": "2025-02-06 11:35:03"
        }
    },
    {
        "model": "repository.station",
        "pk": 62,
        "fields": {
            "code": "BSMI",
            "network": "IA",
            "name": "Bula",
            "latitude": "-3.1075",
            "longitude": "130.4939",
            "elevation": null,
            "created_at": "2025-02-06 11:35:03"
        }
    },
    {
        "model": "repository.station",
        "pk": 63,
        "fields": {
            "code": "BSSI",
            "network": "IA",
            "name": "Benteng",
            "latitude": "-6.1428",
            "longitude": "120.4904",
            "elevation": null,
            "created_at": "2025-02-06 11:35:03"
        }
    },
    {
        "model": "repository.station",
        "pk": 64,
        "fields": {
            "code": "BTCM",
            "network": "IA",
            "name": "BungkuTengah",
            "latitude": "-2.4768",
            "longitude": "121.9241",
            "elevation": null,
            "created_at": "2025-02-06 11:35:03"
        }
    },
    {
        "model": "repository.station",
        "pk": 65,
        "fields": {
            "code": "BTJI",
            "network": "IA",
            "name": "BumiJawa",
            "latitude": "-7.1972",
            "longitude": "109.1641",
            "elevation": null,
            "created_at": "2025-02-06 11:35:03"
        }
    },
    {
        "model": "repository.station",
        "pk": 66,
        "fields": {
            "code": "BTSPI",
            "network": "IA",
            "name": "BonggoTimur",
            "latitude": "-2.3779",
            "longitude": "139.7042",
            "elevation": null,
            "created_at": "2025-02-06 11:35:03"
        }
    },
    {
        "model": "repository.station",
        "pk": 67,
        "fields": {
            "code": "BUBSI",
            "network": "IA",
            "name": "Bunta Banggai",
            "latitude": "-0.855",
            "longitude": "122.207",
            "elevation": null,
            "created_at": "2025-02-06 11:35:03"
        }
    },
    {
        "model": "repository.station",
        "pk": 68,
        "fields": {
            "code": "BUJI",
            "network": "IA",
            "name": "Buayan",
            "latitude": "-7.75603",
            "longitude": "109.46133",
            "elevation": null,
            "created_at": "2025-02-06 11:35:03"
        }
    },
    {
        "model": "repository.station",
        "pk": 69,
        "fields": {
            "code": "BUKI",
            "network": "IA",
            "name": "Berau",
            "latitude": "1.25163",
            "longitude": "118.709328",
            "elevation": null,
            "created_at": "2025-02-06 11:35:03"
        }
    },
    {
        "model": "repository.station",
        "pk": 70,
        "fields": {
            "code": "BUMSI",
            "network": "IA",
            "name": "Bungku-Utara",
            "latitude": "-1.977807",
            "longitude": "121.3346",
            "elevation": null,
            "created_at": "2025-02-06 11:35:03"
        }
    },
    {
        "model": "repository.station",
        "pk": 71,
        "fields": {
            "code": "BUSI",
            "network": "IA",
            "name": "BandarBaru",
            "latitude": "5.2445",
            "longitude": "96.243",
            "elevation": null,
            "created_at": "2025-02-06 11:35:03"
        }
    },
    {
        "model": "repository.station",
        "pk": 72,
        "fields": {
            "code": "BWJI",
            "network": "IA",
            "name": "Bawean",
            "latitude": "-5.8511",
            "longitude": "112.6578",
            "elevation": null,
            "created_at": "2025-02-06 11:35:03"
        }
    },
    {
        "model": "repository.station",
        "pk": 73,
        "fields": {
            "code": "BYJI",
            "network": "IA",
            "name": "Banyuwangi",
            "latitude": "-8.2146",
            "longitude": "114.3556",
            "elevation": null,
            "created_at": "2025-02-06 11:35:03"
        }
    },
    {
        "model": "repository.station",
        "pk": 74,
        "fields": {
            "code": "BYLI",
            "network": "IA",
            "name": "Bayan",
            "latitude": "-8.2272",
            "longitude": "116.4202",
            "elevation": null,
            "created_at": "2025-02-06 11:35:03"
        }
    },
    {
        "model": "repository.station",
        "pk": 75,
        "fields": {
            "code": "CASI",
            "network": "IA",
            "name": "Calang",
            "latitude": "4.6288",
            "longitude": "95.576",
            "elevation": null,
            "created_at": "2025-02-06 11:35:03"
        }
    },
    {
        "model": "repository.station",
        "pk": 76,
        "fields": {
            "code": "CBJI",
            "network": "IA",
            "name": "Citeko",
            "latitude": "-6.6981",
            "longitude": "106.9349",
            "elevation": null,
            "created_at": "2025-02-06 11:35:03"
        }
    },
    {
        "model": "repository.station",
        "pk": 77,
        "fields": {
            "code": "CBJM",
            "network": "IA",
            "name": "Cipongkor",
            "latitude": "-6.57",
            "longitude": "107.2117",
            "elevation": null,
            "created_at": "2025-02-06 11:35:03"
        }
    },
    {
        "model": "repository.station",
        "pk": 78,
        "fields": {
            "code": "CCJM",
            "network": "IA",
            "name": "Campaka",
            "latitude": "-7.0166",
            "longitude": "107.1401",
            "elevation": null,
            "created_at": "2025-02-06 11:35:03"
        }
    },
    {
        "model": "repository.station",
        "pk": 79,
        "fields": {
            "code": "CGJI",
            "network": "IA",
            "name": "Cigeulis",
            "latitude": "-6.6134",
            "longitude": "105.6929",
            "elevation": null,
            "created_at": "2025-02-06 11:35:03"
        }
    },
    {
        "model": "repository.station",
        "pk": 80,
        "fields": {
            "code": "CIJI",
            "network": "IA",
            "name": "Cipedes",
            "latitude": "-7.31741",
            "longitude": "108.19589",
            "elevation": null,
            "created_at": "2025-02-06 11:35:03"
        }
    },
    {
        "model": "repository.station",
        "pk": 81,
        "fields": {
            "code": "CIJM",
            "network": "IA",
            "name": "Cikedung",
            "latitude": "-6.4926",
            "longitude": "108.1853",
            "elevation": null,
            "created_at": "2025-02-06 11:35:03"
        }
    },
    {
        "model": "repository.station",
        "pk": 82,
        "fields": {
            "code": "CIKJI",
            "network": "IA",
            "name": "Cibuaya-Karawang",
            "latitude": "-6.041924",
            "longitude": "107.347374",
            "elevation": null,
            "created_at": "2025-02-06 11:35:03"
        }
    },
    {
        "model": "repository.station",
        "pk": 83,
        "fields": {
            "code": "CILJI",
            "network": "IA",
            "name": "Cibeber",
            "latitude": "-6.822",
            "longitude": "106.316",
            "elevation": null,
            "created_at": "2025-02-06 11:35:03"
        }
    },
    {
        "model": "repository.station",
        "pk": 84,
        "fields": {
            "code": "CMJI",
            "network": "IA",
            "name": "Cimerak",
            "latitude": "-7.7837",
            "longitude": "108.4486",
            "elevation": null,
            "created_at": "2025-02-06 11:35:03"
        }
    },
    {
        "model": "repository.station",
        "pk": 85,
        "fields": {
            "code": "CNJI",
            "network": "IA",
            "name": "Cibinong",
            "latitude": "-7.3091",
            "longitude": "107.1296",
            "elevation": null,
            "created_at": "2025-02-06 11:35:03"
        }
    },
    {
        "model": "repository.station",
        "pk": 86,
        "fields": {
            "code": "CSBJI",
            "network": "IA",
            "name": "Compreng",
            "latitude": "-6.404687",
            "longitude": "107.881737",
            "elevation": null,
            "created_at": "2025-02-06 11:35:03"
        }
    },
    {
        "model": "repository.station",
        "pk": 87,
        "fields": {
            "code": "CSJI",
            "network": "IA",
            "name": "Ciracap",
            "latitude": "-7.3301",
            "longitude": "106.52107",
            "elevation": null,
            "created_at": "2025-02-06 11:35:03"
        }
    },
    {
        "model": "repository.station",
        "pk": 88,
        "fields": {
            "code": "CSJM",
            "network": "IA",
            "name": "Congeang",
            "latitude": "-6.7405",
            "longitude": "108.0099",
            "elevation": null,
            "created_at": "2025-02-06 11:35:03"
        }
    },
    {
        "model": "repository.station",
        "pk": 89,
        "fields": {
            "code": "CTJI",
            "network": "IA",
            "name": "WadukCacaban",
            "latitude": "-7.0075",
            "longitude": "109.1835",
            "elevation": null,
            "created_at": "2025-02-06 11:35:03"
        }
    },
    {
        "model": "repository.station",
        "pk": 90,
        "fields": {
            "code": "CWJM",
            "network": "IA",
            "name": "CikalongWetan",
            "latitude": "-6.7423",
            "longitude": "107.4448",
            "elevation": null,
            "created_at": "2025-02-06 11:35:03"
        }
    },
    {
        "model": "repository.station",
        "pk": 91,
        "fields": {
            "code": "DBJI",
            "network": "IA",
            "name": "Dramaga",
            "latitude": "-6.5542",
            "longitude": "106.7436",
            "elevation": null,
            "created_at": "2025-02-06 11:35:03"
        }
    },
    {
        "model": "repository.station",
        "pk": 92,
        "fields": {
            "code": "DBKI",
            "network": "IA",
            "name": "DusunSelatan",
            "latitude": "-1.6792",
            "longitude": "114.9081",
            "elevation": null,
            "created_at": "2025-02-06 11:35:03"
        }
    },
    {
        "model": "repository.station",
        "pk": 93,
        "fields": {
            "code": "DBNFM",
            "network": "IA",
            "name": "Donggo",
            "latitude": "-8.424",
            "longitude": "118.5948",
            "elevation": null,
            "created_at": "2025-02-06 11:35:03"
        }
    },
    {
        "model": "repository.station",
        "pk": 94,
        "fields": {
            "code": "DDSI",
            "network": "IA",
            "name": "DumaiTimur",
            "latitude": "1.6677",
            "longitude": "101.4603",
            "elevation": null,
            "created_at": "2025-02-06 11:35:03"
        }
    },
    {
        "model": "repository.station",
        "pk": 95,
        "fields": {
            "code": "DNP",
            "network": "IA",
            "name": "Denpasar",
            "latitude": "-8.6773",
            "longitude": "115.2097",
            "elevation": null,
            "created_at": "2025-02-06 11:35:03"
        }
    },
    {
        "model": "repository.station",
        "pk": 96,
        "fields": {
            "code": "DOCM",
            "network": "IA",
            "name": "Donggala",
            "latitude": "-0.6758",
            "longitude": "119.7487",
            "elevation": null,
            "created_at": "2025-02-06 11:35:03"
        }
    },
    {
        "model": "repository.station",
        "pk": 97,
        "fields": {
            "code": "DYPI",
            "network": "IA",
            "name": "Dekai",
            "latitude": "-4.8521",
            "longitude": "139.4991",
            "elevation": null,
            "created_at": "2025-02-06 11:35:03"
        }
    },
    {
        "model": "repository.station",
        "pk": 98,
        "fields": {
            "code": "EDFI",
            "network": "IA",
            "name": "Ende",
            "latitude": "-8.7497",
            "longitude": "121.6903",
            "elevation": null,
            "created_at": "2025-02-06 11:35:03"
        }
    },
    {
        "model": "repository.station",
        "pk": 99,
        "fields": {
            "code": "EDMPI",
            "network": "IA",
            "name": "Edera",
            "latitude": "-7.175",
            "longitude": "139.585",
            "elevation": null,
            "created_at": "2025-02-06 11:35:03"
        }
    },
    {
        "model": "repository.station",
        "pk": 100,
        "fields": {
            "code": "EGSI",
            "network": "IA",
            "name": "Enggano",
            "latitude": "-5.3526",
            "longitude": "102.2767",
            "elevation": null,
            "created_at": "2025-02-06 11:35:03"
        }
    },
    {
        "model": "repository.station",
        "pk": 101,
        "fields": {
            "code": "ELMPI",
            "network": "IA",
            "name": "Eligobel",
            "latitude": "-7.489",
            "longitude": "140.789",
            "elevation": null,
            "created_at": "2025-02-06 11:35:03"
        }
    },
    {
        "model": "repository.station",
        "pk": 102,
        "fields": {
            "code": "ESNI",
            "network": "IA",
            "name": "Empang",
            "latitude": "-8.7875",
            "longitude": "117.965843",
            "elevation": null,
            "created_at": "2025-02-06 11:35:03"
        }
    },
    {
        "model": "repository.station",
        "pk": 103,
        "fields": {
            "code": "FAKI",
            "network": "IA",
            "name": "Fakfak",
            "latitude": "-2.9192",
            "longitude": "132.265",
            "elevation": null,
            "created_at": "2025-02-06 11:35:03"
        }
    },
    {
        "model": "repository.station",
        "pk": 104,
        "fields": {
            "code": "FKMPM",
            "network": "IA",
            "name": "Kurik",
            "latitude": "-8.2515",
            "longitude": "140.2666",
            "elevation": null,
            "created_at": "2025-02-06 11:35:03"
        }
    },
    {
        "model": "repository.station",
        "pk": 105,
        "fields": {
            "code": "FKSPI",
            "network": "IA",
            "name": "Sawiat",
            "latitude": "-1.1594",
            "longitude": "132.016",
            "elevation": null,
            "created_at": "2025-02-06 11:35:03"
        }
    },
    {
        "model": "repository.station",
        "pk": 106,
        "fields": {
            "code": "GARPI",
            "network": "IA",
            "name": "PulauGag",
            "latitude": "-0.43465",
            "longitude": "129.900",
            "elevation": null,
            "created_at": "2025-02-06 11:35:03"
        }
    },
    {
        "model": "repository.station",
        "pk": 107,
        "fields": {
            "code": "GBJI",
            "network": "IA",
            "name": "Gringsing",
            "latitude": "-6.9533",
            "longitude": "109.9762",
            "elevation": null,
            "created_at": "2025-02-06 11:35:03"
        }
    },
    {
        "model": "repository.station",
        "pk": 108,
        "fields": {
            "code": "GEBBI",
            "network": "IA",
            "name": "Gerokgak",
            "latitude": "-8.164",
            "longitude": "114.714",
            "elevation": null,
            "created_at": "2025-02-06 11:35:03"
        }
    },
    {
        "model": "repository.station",
        "pk": 109,
        "fields": {
            "code": "GEJI",
            "network": "IA",
            "name": "Gedangan",
            "latitude": "-8.3469",
            "longitude": "112.5901",
            "elevation": null,
            "created_at": "2025-02-06 11:35:03"
        }
    },
    {
        "model": "repository.station",
        "pk": 110,
        "fields": {
            "code": "GENI",
            "network": "IA",
            "name": "Genyem",
            "latitude": "-2.5926",
            "longitude": "140.1677",
            "elevation": null,
            "created_at": "2025-02-06 11:35:03"
        }
    },
    {
        "model": "repository.station",
        "pk": 111,
        "fields": {
            "code": "GESM",
            "network": "IA",
            "name": "Geumpang",
            "latitude": "4.8421",
            "longitude": "96.1278",
            "elevation": null,
            "created_at": "2025-02-06 11:35:03"
        }
    },
    {
        "model": "repository.station",
        "pk": 112,
        "fields": {
            "code": "GGJM",
            "network": "IA",
            "name": "Gabus",
            "latitude": "-7.171615",
            "longitude": "111.203525",
            "elevation": null,
            "created_at": "2025-02-06 11:35:03"
        }
    },
    {
        "model": "repository.station",
        "pk": 113,
        "fields": {
            "code": "GHMI",
            "network": "IA",
            "name": "GaneBarat",
            "latitude": "-0.3563",
            "longitude": "127.8497",
            "elevation": null,
            "created_at": "2025-02-06 11:35:03"
        }
    },
    {
        "model": "repository.station",
        "pk": 114,
        "fields": {
            "code": "GKJM",
            "network": "IA",
            "name": "Gedangsari",
            "latitude": "-7.8411",
            "longitude": "110.5922",
            "elevation": null,
            "created_at": "2025-02-06 11:35:03"
        }
    },
    {
        "model": "repository.station",
        "pk": 115,
        "fields": {
            "code": "GMJI",
            "network": "IA",
            "name": "Gumukmas",
            "latitude": "-8.2732",
            "longitude": "113.4441",
            "elevation": null,
            "created_at": "2025-02-06 11:35:03"
        }
    },
    {
        "model": "repository.station",
        "pk": 116,
        "fields": {
            "code": "GPSM",
            "network": "IA",
            "name": "Geumpang",
            "latitude": "4.869346",
            "longitude": "96.090423",
            "elevation": null,
            "created_at": "2025-02-06 11:35:03"
        }
    },
    {
        "model": "repository.station",
        "pk": 117,
        "fields": {
            "code": "GRJI",
            "network": "IA",
            "name": "Gresik",
            "latitude": "-6.9145",
            "longitude": "112.4793",
            "elevation": null,
            "created_at": "2025-02-06 11:35:03"
        }
    },
    {
        "model": "repository.station",
        "pk": 118,
        "fields": {
            "code": "GSI",
            "network": "IA",
            "name": "Gunungsitoli",
            "latitude": "1.3036",
            "longitude": "97.5754",
            "elevation": null,
            "created_at": "2025-02-06 11:35:03"
        }
    },
    {
        "model": "repository.station",
        "pk": 119,
        "fields": {
            "code": "GTJI",
            "network": "IA",
            "name": "Gemawang",
            "latitude": "-7.1638",
            "longitude": "110.184",
            "elevation": null,
            "created_at": "2025-02-06 11:35:03"
        }
    },
    {
        "model": "repository.station",
        "pk": 120,
        "fields": {
            "code": "GTOI",
            "network": "IA",
            "name": "Gorontalo",
            "latitude": "0.7628",
            "longitude": "122.87",
            "elevation": null,
            "created_at": "2025-02-06 11:35:03"
        }
    },
    {
        "model": "repository.station",
        "pk": 121,
        "fields": {
            "code": "GTSI",
            "network": "IA",
            "name": "GunungToar",
            "latitude": "-0.5981",
            "longitude": "101.4887",
            "elevation": null,
            "created_at": "2025-02-06 11:35:03"
        }
    },
    {
        "model": "repository.station",
        "pk": 122,
        "fields": {
            "code": "GUJM",
            "network": "IA",
            "name": "Gubug",
            "latitude": "-7.054276",
            "longitude": "110.666353",
            "elevation": null,
            "created_at": "2025-02-06 11:35:03"
        }
    },
    {
        "model": "repository.station",
        "pk": 123,
        "fields": {
            "code": "HINSI",
            "network": "IA",
            "name": "Hibala",
            "latitude": "-0.540",
            "longitude": "98.499",
            "elevation": null,
            "created_at": "2025-02-06 11:35:03"
        }
    },
    {
        "model": "repository.station",
        "pk": 124,
        "fields": {
            "code": "IATSM",
            "network": "IA",
            "name": "Idi",
            "latitude": "4.9241",
            "longitude": "97.7845",
            "elevation": null,
            "created_at": "2025-02-06 11:35:03"
        }
    },
    {
        "model": "repository.station",
        "pk": 125,
        "fields": {
            "code": "IBTI",
            "network": "IA",
            "name": "IleBoleng",
            "latitude": "-8.3857",
            "longitude": "123.2584",
            "elevation": null,
            "created_at": "2025-02-06 11:35:03"
        }
    },
    {
        "model": "repository.station",
        "pk": 126,
        "fields": {
            "code": "IGBI",
            "network": "IA",
            "name": "Ingas",
            "latitude": "-8.8181",
            "longitude": "115.1456",
            "elevation": null,
            "created_at": "2025-02-06 11:35:03"
        }
    },
    {
        "model": "repository.station",
        "pk": 127,
        "fields": {
            "code": "IHMI",
            "network": "IA",
            "name": "Ibu",
            "latitude": "1.5082",
            "longitude": "127.5555",
            "elevation": null,
            "created_at": "2025-02-06 11:35:03"
        }
    },
    {
        "model": "repository.station",
        "pk": 128,
        "fields": {
            "code": "IHRSI",
            "network": "IA",
            "name": "IndragiriHilir",
            "latitude": "-0.9652",
            "longitude": "102.764519",
            "elevation": null,
            "created_at": "2025-02-06 11:35:03"
        }
    },
    {
        "model": "repository.station",
        "pk": 129,
        "fields": {
            "code": "IWPI",
            "network": "IA",
            "name": "Rasiei",
            "latitude": "-2.7579",
            "longitude": "134.5163",
            "elevation": null,
            "created_at": "2025-02-06 11:35:03"
        }
    },
    {
        "model": "repository.station",
        "pk": 130,
        "fields": {
            "code": "JAASI",
            "network": "IA",
            "name": "Jeumpa",
            "latitude": "3.766",
            "longitude": "96.820",
            "elevation": null,
            "created_at": "2025-02-06 11:35:03"
        }
    },
    {
        "model": "repository.station",
        "pk": 131,
        "fields": {
            "code": "JAGI",
            "network": "IA",
            "name": "Jajag",
            "latitude": "-8.4703",
            "longitude": "114.152",
            "elevation": null,
            "created_at": "2025-02-06 11:35:03"
        }
    },
    {
        "model": "repository.station",
        "pk": 132,
        "fields": {
            "code": "JASI",
            "network": "IA",
            "name": "Sangir-BalaiJanggo",
            "latitude": "-1.41453",
            "longitude": "101.45838",
            "elevation": null,
            "created_at": "2025-02-06 11:35:03"
        }
    },
    {
        "model": "repository.station",
        "pk": 133,
        "fields": {
            "code": "JAY",
            "network": "IA",
            "name": "Jayapura",
            "latitude": "-2.5145",
            "longitude": "140.7043",
            "elevation": null,
            "created_at": "2025-02-06 11:35:03"
        }
    },
    {
        "model": "repository.station",
        "pk": 134,
        "fields": {
            "code": "JBJI",
            "network": "IA",
            "name": "Jasinga",
            "latitude": "-6.483735",
            "longitude": "106.4698517",
            "elevation": null,
            "created_at": "2025-02-06 11:35:03"
        }
    },
    {
        "model": "repository.station",
        "pk": 135,
        "fields": {
            "code": "JBJM",
            "network": "IA",
            "name": "Jepon",
            "latitude": "-6.9729",
            "longitude": "111.4587",
            "elevation": null,
            "created_at": "2025-02-06 11:35:03"
        }
    },
    {
        "model": "repository.station",
        "pk": 136,
        "fields": {
            "code": "JCJI",
            "network": "IA",
            "name": "Jatiwangi",
            "latitude": "-6.7344",
            "longitude": "108.2631",
            "elevation": null,
            "created_at": "2025-02-06 11:35:03"
        }
    },
    {
        "model": "repository.station",
        "pk": 137,
        "fields": {
            "code": "JHMI",
            "network": "IA",
            "name": "Jailolo",
            "latitude": "1.0756",
            "longitude": "127.478",
            "elevation": null,
            "created_at": "2025-02-06 11:35:03"
        }
    },
    {
        "model": "repository.station",
        "pk": 138,
        "fields": {
            "code": "JMSI",
            "network": "IA",
            "name": "Jangkat",
            "latitude": "-2.63715",
            "longitude": "101.88745",
            "elevation": null,
            "created_at": "2025-02-06 11:35:03"
        }
    },
    {
        "model": "repository.station",
        "pk": 139,
        "fields": {
            "code": "JPJI",
            "network": "IA",
            "name": "Jatiluhur",
            "latitude": "-6.5306583",
            "longitude": "107.41757",
            "elevation": null,
            "created_at": "2025-02-06 11:35:03"
        }
    },
    {
        "model": "repository.station",
        "pk": 140,
        "fields": {
            "code": "JPSI",
            "network": "IA",
            "name": "Jurai",
            "latitude": "-1.34164",
            "longitude": "100.58645",
            "elevation": null,
            "created_at": "2025-02-06 11:35:03"
        }
    },
    {
        "model": "repository.station",
        "pk": 141,
        "fields": {
            "code": "JSBFM",
            "network": "IA",
            "name": "Jereweh",
            "latitude": "-8.8717",
            "longitude": "116.8164",
            "elevation": null,
            "created_at": "2025-02-06 11:35:03"
        }
    },
    {
        "model": "repository.station",
        "pk": 142,
        "fields": {
            "code": "JTJM",
            "network": "IA",
            "name": "Jampang-Tengah",
            "latitude": "-7.0573",
            "longitude": "106.8015",
            "elevation": null,
            "created_at": "2025-02-06 11:35:03"
        }
    },
    {
        "model": "repository.station",
        "pk": 143,
        "fields": {
            "code": "JWJM",
            "network": "IA",
            "name": "Juwangi",
            "latitude": "-7.2062",
            "longitude": "110.7527",
            "elevation": null,
            "created_at": "2025-02-06 11:35:03"
        }
    },
    {
        "model": "repository.station",
        "pk": 144,
        "fields": {
            "code": "KABKI",
            "network": "IA",
            "name": "Bongan",
            "latitude": "-0.750684",
            "longitude": "116.241898",
            "elevation": null,
            "created_at": "2025-02-06 11:35:03"
        }
    },
    {
        "model": "repository.station",
        "pk": 145,
        "fields": {
            "code": "KAKKI",
            "network": "IA",
            "name": "Karangan",
            "latitude": "1.366887",
            "longitude": "117.750031",
            "elevation": null,
            "created_at": "2025-02-06 11:35:03"
        }
    },
    {
        "model": "repository.station",
        "pk": 146,
        "fields": {
            "code": "KARPI",
            "network": "IA",
            "name": "Kabare",
            "latitude": "-0.061",
            "longitude": "130.991",
            "elevation": null,
            "created_at": "2025-02-06 11:35:03"
        }
    },
    {
        "model": "repository.station",
        "pk": 147,
        "fields": {
            "code": "KASAI",
            "network": "IA",
            "name": "Kota-Baharu",
            "latitude": "2.491893",
            "longitude": "97.858239",
            "elevation": null,
            "created_at": "2025-02-06 11:35:03"
        }
    },
    {
        "model": "repository.station",
        "pk": 148,
        "fields": {
            "code": "KBBI",
            "network": "IA",
            "name": "Kintamani",
            "latitude": "-8.286",
            "longitude": "115.2547",
            "elevation": null,
            "created_at": "2025-02-06 11:35:03"
        }
    },
    {
        "model": "repository.station",
        "pk": 149,
        "fields": {
            "code": "KBJM",
            "network": "IA",
            "name": "Kunduran",
            "latitude": "-7.0505",
            "longitude": "111.2329",
            "elevation": null,
            "created_at": "2025-02-06 11:35:03"
        }
    },
    {
        "model": "repository.station",
        "pk": 150,
        "fields": {
            "code": "KBKI",
            "network": "IA",
            "name": "Kotabaru",
            "latitude": "-3.2995",
            "longitude": "116.1668",
            "elevation": null,
            "created_at": "2025-02-06 11:35:03"
        }
    },
    {
        "model": "repository.station",
        "pk": 151,
        "fields": {
            "code": "KBSSI",
            "network": "IA",
            "name": "Kodi Bangedo",
            "latitude": "-9.593",
            "longitude": "118.993",
            "elevation": null,
            "created_at": "2025-02-06 11:35:03"
        }
    },
    {
        "model": "repository.station",
        "pk": 152,
        "fields": {
            "code": "KDI",
            "network": "IA",
            "name": "Kendari",
            "latitude": "-3.9574",
            "longitude": "122.6193",
            "elevation": null,
            "created_at": "2025-02-06 11:35:03"
        }
    },
    {
        "model": "repository.station",
        "pk": 153,
        "fields": {
            "code": "KGCM",
            "network": "IA",
            "name": "Kwandang",
            "latitude": "0.5485",
            "longitude": "123.0099",
            "elevation": null,
            "created_at": "2025-02-06 11:35:03"
        }
    },
    {
        "model": "repository.station",
        "pk": 154,
        "fields": {
            "code": "KHK",
            "network": "IA",
            "name": "Kahang-Kahang",
            "latitude": "-8.364",
            "longitude": "115.6096",
            "elevation": null,
            "created_at": "2025-02-06 11:35:03"
        }
    },
    {
        "model": "repository.station",
        "pk": 155,
        "fields": {
            "code": "KHSSI",
            "network": "IA",
            "name": "KatalaHamuLingu",
            "latitude": "-9.801",
            "longitude": "119.945",
            "elevation": null,
            "created_at": "2025-02-06 11:35:03"
        }
    },
    {
        "model": "repository.station",
        "pk": 156,
        "fields": {
            "code": "KIMPI",
            "network": "IA",
            "name": "Kimaam",
            "latitude": "-7.979",
            "longitude": "138.852",
            "elevation": null,
            "created_at": "2025-02-06 11:35:03"
        }
    },
    {
        "model": "repository.station",
        "pk": 157,
        "fields": {
            "code": "KJCM",
            "network": "IA",
            "name": "Kelara",
            "latitude": "-5.5664",
            "longitude": "119.8025",
            "elevation": null,
            "created_at": "2025-02-06 11:35:03"
        }
    },
    {
        "model": "repository.station",
        "pk": 158,
        "fields": {
            "code": "KKJM",
            "network": "IA",
            "name": "Kokap",
            "latitude": "-7.843384",
            "longitude": "110.057248",
            "elevation": null,
            "created_at": "2025-02-06 11:35:03"
        }
    },
    {
        "model": "repository.station",
        "pk": 159,
        "fields": {
            "code": "KKKI",
            "network": "IA",
            "name": "Kendawangan",
            "latitude": "-2.515",
            "longitude": "110.1956",
            "elevation": null,
            "created_at": "2025-02-06 11:35:03"
        }
    },
    {
        "model": "repository.station",
        "pk": 160,
        "fields": {
            "code": "KKKKI",
            "network": "IA",
            "name": "Katingan-Kuala",
            "latitude": "-1.871143",
            "longitude": "113.419801",
            "elevation": null,
            "created_at": "2025-02-06 11:35:03"
        }
    },
    {
        "model": "repository.station",
        "pk": 161,
        "fields": {
            "code": "KKMI",
            "network": "IA",
            "name": "Kei-Kecil",
            "latitude": "-5.693",
            "longitude": "132.7179",
            "elevation": null,
            "created_at": "2025-02-06 11:35:03"
        }
    },
    {
        "model": "repository.station",
        "pk": 162,
        "fields": {
            "code": "KKSI",
            "network": "IA",
            "name": "Kolaka",
            "latitude": "-4.1717",
            "longitude": "121.6513",
            "elevation": null,
            "created_at": "2025-02-06 11:35:03"
        }
    },
    {
        "model": "repository.station",
        "pk": 163,
        "fields": {
            "code": "KKTKI",
            "network": "IA",
            "name": "Kombeng",
            "latitude": "1.186094",
            "longitude": "116.949317",
            "elevation": null,
            "created_at": "2025-02-06 11:35:03"
        }
    },
    {
        "model": "repository.station",
        "pk": 164,
        "fields": {
            "code": "KLI",
            "network": "IA",
            "name": "Kotabumi",
            "latitude": "-4.8363",
            "longitude": "104.8705",
            "elevation": null,
            "created_at": "2025-02-06 11:35:03"
        }
    },
    {
        "model": "repository.station",
        "pk": 165,
        "fields": {
            "code": "KLJI",
            "network": "IA",
            "name": "Klakah",
            "latitude": "-7.99607",
            "longitude": "113.25175",
            "elevation": null,
            "created_at": "2025-02-06 11:35:03"
        }
    },
    {
        "model": "repository.station",
        "pk": 166,
        "fields": {
            "code": "KLNI",
            "network": "IA",
            "name": "Mataram",
            "latitude": "-8.4219",
            "longitude": "116.0949",
            "elevation": null,
            "created_at": "2025-02-06 11:35:03"
        }
    },
    {
        "model": "repository.station",
        "pk": 167,
        "fields": {
            "code": "KLSI",
            "network": "IA",
            "name": "Kotabumi",
            "latitude": "-4.6871",
            "longitude": "104.7317",
            "elevation": null,
            "created_at": "2025-02-06 11:35:03"
        }
    },
    {
        "model": "repository.station",
        "pk": 168,
        "fields": {
            "code": "KLSM",
            "network": "IA",
            "name": "Kluet-Utara",
            "latitude": "3.2211",
            "longitude": "97.3158",
            "elevation": null,
            "created_at": "2025-02-06 11:35:03"
        }
    },
    {
        "model": "repository.station",
        "pk": 169,
        "fields": {
            "code": "KMBFM",
            "network": "IA",
            "name": "Kuwus",
            "latitude": "-8.5654",
            "longitude": "120.3131",
            "elevation": null,
            "created_at": "2025-02-06 11:35:03"
        }
    },
    {
        "model": "repository.station",
        "pk": 170,
        "fields": {
            "code": "KMMI",
            "network": "IA",
            "name": "Kalianget",
            "latitude": "-7.0412",
            "longitude": "113.9157",
            "elevation": null,
            "created_at": "2025-02-06 11:35:03"
        }
    },
    {
        "model": "repository.station",
        "pk": 171,
        "fields": {
            "code": "KMNI",
            "network": "IA",
            "name": "Kota-Mataram",
            "latitude": "-8.620637",
            "longitude": "116.08918",
            "elevation": null,
            "created_at": "2025-02-06 11:35:03"
        }
    },
    {
        "model": "repository.station",
        "pk": 172,
        "fields": {
            "code": "KMPI",
            "network": "IA",
            "name": "Kaimana",
            "latitude": "-3.6617",
            "longitude": "133.7044",
            "elevation": null,
            "created_at": "2025-02-06 11:35:03"
        }
    },
    {
        "model": "repository.station",
        "pk": 173,
        "fields": {
            "code": "KMSI",
            "network": "IA",
            "name": "Kotamubagu",
            "latitude": "0.5745",
            "longitude": "123.8907",
            "elevation": null,
            "created_at": "2025-02-06 11:35:03"
        }
    },
    {
        "model": "repository.station",
        "pk": 174,
        "fields": {
            "code": "KOMFI",
            "network": "IA",
            "name": "Komodo",
            "latitude": "-8.536",
            "longitude": "119.547",
            "elevation": null,
            "created_at": "2025-02-06 11:35:03"
        }
    },
    {
        "model": "repository.station",
        "pk": 175,
        "fields": {
            "code": "KORPI",
            "network": "IA",
            "name": "Kofiau",
            "latitude": "-1.158",
            "longitude": "129.845",
            "elevation": null,
            "created_at": "2025-02-06 11:35:03"
        }
    },
    {
        "model": "repository.station",
        "pk": 176,
        "fields": {
            "code": "KPJI",
            "network": "IA",
            "name": "Karang-Pucung",
            "latitude": "-7.3332",
            "longitude": "108.9312",
            "elevation": null,
            "created_at": "2025-02-06 11:35:03"
        }
    },
    {
        "model": "repository.station",
        "pk": 177,
        "fields": {
            "code": "KPJM",
            "network": "IA",
            "name": "Kapas",
            "latitude": "-7.1883",
            "longitude": "111.9281",
            "elevation": null,
            "created_at": "2025-02-06 11:35:03"
        }
    },
    {
        "model": "repository.station",
        "pk": 178,
        "fields": {
            "code": "KRAI",
            "network": "IA",
            "name": "Kairatu",
            "latitude": "-3.3184",
            "longitude": "128.3947",
            "elevation": null,
            "created_at": "2025-02-06 11:35:03"
        }
    },
    {
        "model": "repository.station",
        "pk": 179,
        "fields": {
            "code": "KRJI",
            "network": "IA",
            "name": "Kerinci",
            "latitude": "-2.0912",
            "longitude": "101.4619",
            "elevation": null,
            "created_at": "2025-02-06 11:35:03"
        }
    },
    {
        "model": "repository.station",
        "pk": 180,
        "fields": {
            "code": "KRSI",
            "network": "IA",
            "name": "Karosa",
            "latitude": "-1.8903",
            "longitude": "119.5627",
            "elevation": null,
            "created_at": "2025-02-06 11:35:03"
        }
    },
    {
        "model": "repository.station",
        "pk": 181,
        "fields": {
            "code": "KSI",
            "network": "IA",
            "name": "Kepahiang",
            "latitude": "-3.651",
            "longitude": "102.5929",
            "elevation": null,
            "created_at": "2025-02-06 11:35:03"
        }
    },
    {
        "model": "repository.station",
        "pk": 182,
        "fields": {
            "code": "KTMI",
            "network": "IA",
            "name": "Kormomolin",
            "latitude": "-7.66",
            "longitude": "131.58",
            "elevation": null,
            "created_at": "2025-02-06 11:35:03"
        }
    },
    {
        "model": "repository.station",
        "pk": 183,
        "fields": {
            "code": "KTTI",
            "network": "IA",
            "name": "Kolbano",
            "latitude": "-10.0369",
            "longitude": "124.5163",
            "elevation": null,
            "created_at": "2025-02-06 11:35:03"
        }
    },
    {
        "model": "repository.station",
        "pk": 184,
        "fields": {
            "code": "KUBSI",
            "network": "IA",
            "name": "Kulisusu",
            "latitude": "-4.78121",
            "longitude": "123.18684",
            "elevation": null,
            "created_at": "2025-02-06 11:35:03"
        }
    },
    {
        "model": "repository.station",
        "pk": 185,
        "fields": {
            "code": "KUKI",
            "network": "IA",
            "name": "Kutai-Barat",
            "latitude": "-0.084665",
            "longitude": "115.662491",
            "elevation": null,
            "created_at": "2025-02-06 11:35:03"
        }
    },
    {
        "model": "repository.station",
        "pk": 186,
        "fields": {
            "code": "KUSI",
            "network": "IA",
            "name": "Kluet-Tengah",
            "latitude": "3.6579",
            "longitude": "97.374397",
            "elevation": null,
            "created_at": "2025-02-06 11:35:03"
        }
    },
    {
        "model": "repository.station",
        "pk": 187,
        "fields": {
            "code": "KWJI",
            "network": "IA",
            "name": "Kertek",
            "latitude": "-7.3837",
            "longitude": "109.9691",
            "elevation": null,
            "created_at": "2025-02-06 11:35:03"
        }
    },
    {
        "model": "repository.station",
        "pk": 188,
        "fields": {
            "code": "LASI",
            "network": "IA",
            "name": "Langsa",
            "latitude": "4.4573",
            "longitude": "97.9704",
            "elevation": null,
            "created_at": "2025-02-06 11:35:03"
        }
    },
    {
        "model": "repository.station",
        "pk": 189,
        "fields": {
            "code": "LBFI",
            "network": "IA",
            "name": "Labuhan-Bajo",
            "latitude": "-8.48",
            "longitude": "119.8921",
            "elevation": null,
            "created_at": "2025-02-06 11:35:03"
        }
    },
    {
        "model": "repository.station",
        "pk": 190,
        "fields": {
            "code": "LBNFM",
            "network": "IA",
            "name": "Lambu",
            "latitude": "-8.6018",
            "longitude": "119.0121",
            "elevation": null,
            "created_at": "2025-02-06 11:35:03"
        }
    },
    {
        "model": "repository.station",
        "pk": 191,
        "fields": {
            "code": "LBTSI",
            "network": "IA",
            "name": "Lintau Buo Utara",
            "latitude": "-0.475",
            "longitude": "100.625",
            "elevation": null,
            "created_at": "2025-02-06 11:35:03"
        }
    },
    {
        "model": "repository.station",
        "pk": 192,
        "fields": {
            "code": "LDSI",
            "network": "IA",
            "name": "Sukandebi",
            "latitude": "2.88948",
            "longitude": "98.160522",
            "elevation": null,
            "created_at": "2025-02-06 11:35:03"
        }
    },
    {
        "model": "repository.station",
        "pk": 193,
        "fields": {
            "code": "LEM",
            "network": "IA",
            "name": "Lembang",
            "latitude": "-6.8266",
            "longitude": "107.6175",
            "elevation": null,
            "created_at": "2025-02-06 11:35:03"
        }
    },
    {
        "model": "repository.station",
        "pk": 194,
        "fields": {
            "code": "LEMFI",
            "network": "IA",
            "name": "Lembor",
            "latitude": "-8.707",
            "longitude": "120.172",
            "elevation": null,
            "created_at": "2025-02-06 11:35:03"
        }
    },
    {
        "model": "repository.station",
        "pk": 195,
        "fields": {
            "code": "LESM",
            "network": "IA",
            "name": "Lemong",
            "latitude": "-4.9616",
            "longitude": "103.7124",
            "elevation": null,
            "created_at": "2025-02-06 11:35:03"
        }
    },
    {
        "model": "repository.station",
        "pk": 196,
        "fields": {
            "code": "LHMI",
            "network": "IA",
            "name": "Lhokseumawe",
            "latitude": "5.2286",
            "longitude": "96.9469",
            "elevation": null,
            "created_at": "2025-02-06 11:35:03"
        }
    },
    {
        "model": "repository.station",
        "pk": 197,
        "fields": {
            "code": "LHSM",
            "network": "IA",
            "name": "Semendo",
            "latitude": "-4.1779734",
            "longitude": "103.5742079",
            "elevation": null,
            "created_at": "2025-02-06 11:35:03"
        }
    },
    {
        "model": "repository.station",
        "pk": 198,
        "fields": {
            "code": "LISM",
            "network": "IA",
            "name": "Lingge-Isaq",
            "latitude": "4.3166",
            "longitude": "97.1822",
            "elevation": null,
            "created_at": "2025-02-06 11:35:03"
        }
    },
    {
        "model": "repository.station",
        "pk": 199,
        "fields": {
            "code": "LJPI",
            "network": "IA",
            "name": "Lereh",
            "latitude": "-3.1271",
            "longitude": "139.945",
            "elevation": null,
            "created_at": "2025-02-06 11:35:03"
        }
    },
    {
        "model": "repository.station",
        "pk": 200,
        "fields": {
            "code": "LKCI",
            "network": "IA",
            "name": "Lasusua",
            "latitude": "-3.492",
            "longitude": "120.8858",
            "elevation": null,
            "created_at": "2025-02-06 11:35:03"
        }
    },
    {
        "model": "repository.station",
        "pk": 201,
        "fields": {
            "code": "LKSM",
            "network": "IA",
            "name": "Suliki",
            "latitude": "0.1847",
            "longitude": "100.6",
            "elevation": null,
            "created_at": "2025-02-06 11:35:03"
        }
    },
    {
        "model": "repository.station",
        "pk": 202,
        "fields": {
            "code": "LKUCM",
            "network": "IA",
            "name": "Langgikima",
            "latitude": "-3.302",
            "longitude": "122.192",
            "elevation": null,
            "created_at": "2025-02-06 11:35:03"
        }
    },
    {
        "model": "repository.station",
        "pk": 203,
        "fields": {
            "code": "LLSI",
            "network": "IA",
            "name": "Lubuk-LinggauBarat",
            "latitude": "-3.27843",
            "longitude": "102.9139",
            "elevation": null,
            "created_at": "2025-02-06 11:35:03"
        }
    },
    {
        "model": "repository.station",
        "pk": 204,
        "fields": {
            "code": "LLSM",
            "network": "IA",
            "name": "Limau",
            "latitude": "-5.60039",
            "longitude": "104.80943",
            "elevation": null,
            "created_at": "2025-02-06 11:35:03"
        }
    },
    {
        "model": "repository.station",
        "pk": 205,
        "fields": {
            "code": "LMNI",
            "network": "IA",
            "name": "Lembata",
            "latitude": "-8.23386",
            "longitude": "123.716",
            "elevation": null,
            "created_at": "2025-02-06 11:35:03"
        }
    },
    {
        "model": "repository.station",
        "pk": 206,
        "fields": {
            "code": "LMTI",
            "network": "IA",
            "name": "Langke-Rembong",
            "latitude": "-8.6011",
            "longitude": "120.4771",
            "elevation": null,
            "created_at": "2025-02-06 11:35:03"
        }
    },
    {
        "model": "repository.station",
        "pk": 207,
        "fields": {
            "code": "LOCM",
            "network": "IA",
            "name": "Lore-Tengah",
            "latitude": "-1.6502",
            "longitude": "120.1825",
            "elevation": null,
            "created_at": "2025-02-06 11:35:03"
        }
    },
    {
        "model": "repository.station",
        "pk": 208,
        "fields": {
            "code": "LOMSI",
            "network": "IA",
            "name": "Lohia",
            "latitude": "-4.91095",
            "longitude": "122.74157",
            "elevation": null,
            "created_at": "2025-02-06 11:35:03"
        }
    },
    {
        "model": "repository.station",
        "pk": 209,
        "fields": {
            "code": "LPCM",
            "network": "IA",
            "name": "Lembang",
            "latitude": "-3.501",
            "longitude": "119.72",
            "elevation": null,
            "created_at": "2025-02-06 11:35:03"
        }
    },
    {
        "model": "repository.station",
        "pk": 210,
        "fields": {
            "code": "LPSM",
            "network": "IA",
            "name": "Lengayang",
            "latitude": "1.7081",
            "longitude": "100.7199",
            "elevation": null,
            "created_at": "2025-02-06 11:35:03"
        }
    },
    {
        "model": "repository.station",
        "pk": 211,
        "fields": {
            "code": "LRTI",
            "network": "IA",
            "name": "Larantuka",
            "latitude": "-8.2752",
            "longitude": "123",
            "elevation": null,
            "created_at": "2025-02-06 11:35:03"
        }
    },
    {
        "model": "repository.station",
        "pk": 212,
        "fields": {
            "code": "LSCM",
            "network": "IA",
            "name": "Lalabati-Rilau",
            "latitude": "-4.365",
            "longitude": "119.8987",
            "elevation": null,
            "created_at": "2025-02-06 11:35:03"
        }
    },
    {
        "model": "repository.station",
        "pk": 213,
        "fields": {
            "code": "LSNI",
            "network": "IA",
            "name": "Lunyuk",
            "latitude": "-8.966651",
            "longitude": "117.218239",
            "elevation": null,
            "created_at": "2025-02-06 11:35:03"
        }
    },
    {
        "model": "repository.station",
        "pk": 214,
        "fields": {
            "code": "LTNI",
            "network": "IA",
            "name": "Lombok-Timur",
            "latitude": "-8.768723",
            "longitude": "116.484734",
            "elevation": null,
            "created_at": "2025-02-06 11:35:03"
        }
    },
    {
        "model": "repository.station",
        "pk": 215,
        "fields": {
            "code": "LTNSI",
            "network": "IA",
            "name": "Lahewa Timur",
            "latitude": "1.336",
            "longitude": "97.320",
            "elevation": null,
            "created_at": "2025-02-06 11:35:03"
        }
    },
    {
        "model": "repository.station",
        "pk": 216,
        "fields": {
            "code": "LTSM",
            "network": "IA",
            "name": "Lumut",
            "latitude": "1.5294",
            "longitude": "98.9305",
            "elevation": null,
            "created_at": "2025-02-06 11:35:03"
        }
    },
    {
        "model": "repository.station",
        "pk": 217,
        "fields": {
            "code": "LUCM",
            "network": "IA",
            "name": "Lore-Utara",
            "latitude": "-1.4262",
            "longitude": "120.3225",
            "elevation": null,
            "created_at": "2025-02-06 11:35:03"
        }
    },
    {
        "model": "repository.station",
        "pk": 218,
        "fields": {
            "code": "LUJI",
            "network": "IA",
            "name": "Lumbang",
            "latitude": "-7.826",
            "longitude": "113.0107",
            "elevation": null,
            "created_at": "2025-02-06 11:35:03"
        }
    },
    {
        "model": "repository.station",
        "pk": 219,
        "fields": {
            "code": "LUWI",
            "network": "IA",
            "name": "Luwuk",
            "latitude": "-1.0418",
            "longitude": "122.7716",
            "elevation": null,
            "created_at": "2025-02-06 11:35:03"
        }
    },
    {
        "model": "repository.station",
        "pk": 220,
        "fields": {
            "code": "MABKI",
            "network": "IA",
            "name": "Maratua",
            "latitude": "2.2433",
            "longitude": "118.5676",
            "elevation": null,
            "created_at": "2025-02-06 11:35:03"
        }
    },
    {
        "model": "repository.station",
        "pk": 221,
        "fields": {
            "code": "MAKBI",
            "network": "IA",
            "name": "Manggis",
            "latitude": "-8.487",
            "longitude": "115.505",
            "elevation": null,
            "created_at": "2025-02-06 11:35:03"
        }
    },
    {
        "model": "repository.station",
        "pk": 222,
        "fields": {
            "code": "MAKKI",
            "network": "IA",
            "name": "Kep.Karimata",
            "latitude": "-1.582298",
            "longitude": "108.796982",
            "elevation": null,
            "created_at": "2025-02-06 11:35:03"
        }
    },
    {
        "model": "repository.station",
        "pk": 223,
        "fields": {
            "code": "MASFI",
            "network": "IA",
            "name": "Magepanda",
            "latitude": "-8.537",
            "longitude": "122.032",
            "elevation": null,
            "created_at": "2025-02-06 11:35:03"
        }
    },
    {
        "model": "repository.station",
        "pk": 224,
        "fields": {
            "code": "MASM",
            "network": "IA",
            "name": "Masjid-Raya",
            "latitude": "5.4996",
            "longitude": "95.5186",
            "elevation": null,
            "created_at": "2025-02-06 11:35:03"
        }
    },
    {
        "model": "repository.station",
        "pk": 225,
        "fields": {
            "code": "MASSI",
            "network": "IA",
            "name": "Marore",
            "latitude": "4.733",
            "longitude": "125.479",
            "elevation": null,
            "created_at": "2025-02-06 11:35:03"
        }
    },
    {
        "model": "repository.station",
        "pk": 226,
        "fields": {
            "code": "MBBI",
            "network": "IA",
            "name": "Muara-Bungo",
            "latitude": "-1.5410033",
            "longitude": "102.098745",
            "elevation": null,
            "created_at": "2025-02-06 11:35:03"
        }
    },
    {
        "model": "repository.station",
        "pk": 227,
        "fields": {
            "code": "MBJI",
            "network": "IA",
            "name": "Majalengka-Banjarnegara",
            "latitude": "-7.4488",
            "longitude": "109.6322",
            "elevation": null,
            "created_at": "2025-02-06 11:35:03"
        }
    },
    {
        "model": "repository.station",
        "pk": 228,
        "fields": {
            "code": "MBPI",
            "network": "IA",
            "name": "Manimeri",
            "latitude": "-2.035",
            "longitude": "133.7322",
            "elevation": null,
            "created_at": "2025-02-06 11:35:03"
        }
    },
    {
        "model": "repository.station",
        "pk": 229,
        "fields": {
            "code": "MBRPI",
            "network": "IA",
            "name": "MisoolBarat",
            "latitude": "-1.771",
            "longitude": "130.407",
            "elevation": null,
            "created_at": "2025-02-06 11:35:03"
        }
    },
    {
        "model": "repository.station",
        "pk": 230,
        "fields": {
            "code": "MBSM",
            "network": "IA",
            "name": "Marga-Sakti-Seblat",
            "latitude": "-3.145246",
            "longitude": "101.83734",
            "elevation": null,
            "created_at": "2025-02-06 11:35:03"
        }
    },
    {
        "model": "repository.station",
        "pk": 231,
        "fields": {
            "code": "MDSI",
            "network": "IA",
            "name": "Muara-Dua",
            "latitude": "-4.486",
            "longitude": "104.1782",
            "elevation": null,
            "created_at": "2025-02-06 11:35:03"
        }
    },
    {
        "model": "repository.station",
        "pk": 232,
        "fields": {
            "code": "MGAI",
            "network": "IA",
            "name": "Melonguane-Kep-Talaud",
            "latitude": "4.0079",
            "longitude": "126.67",
            "elevation": null,
            "created_at": "2025-02-06 11:35:03"
        }
    },
    {
        "model": "repository.station",
        "pk": 233,
        "fields": {
            "code": "MIBPI",
            "network": "IA",
            "name": "Mindiptana",
            "latitude": "-5.879",
            "longitude": "140.709",
            "elevation": null,
            "created_at": "2025-02-06 11:35:03"
        }
    },
    {
        "model": "repository.station",
        "pk": 234,
        "fields": {
            "code": "MIPI",
            "network": "IA",
            "name": "Mimika-Baru",
            "latitude": "-4.5301",
            "longitude": "136.8935",
            "elevation": null,
            "created_at": "2025-02-06 11:35:03"
        }
    },
    {
        "model": "repository.station",
        "pk": 235,
        "fields": {
            "code": "MISSI",
            "network": "IA",
            "name": "Miangas",
            "latitude": "5.552612",
            "longitude": "126.58147",
            "elevation": null,
            "created_at": "2025-02-06 11:35:03"
        }
    },
    {
        "model": "repository.station",
        "pk": 236,
        "fields": {
            "code": "MKBI",
            "network": "IA",
            "name": "Muko-Muko",
            "latitude": "-2.4474",
            "longitude": "101.2396",
            "elevation": null,
            "created_at": "2025-02-06 11:35:03"
        }
    },
    {
        "model": "repository.station",
        "pk": 237,
        "fields": {
            "code": "MKJM",
            "network": "IA",
            "name": "Manisrenggo",
            "latitude": "-7.6629",
            "longitude": "110.4834",
            "elevation": null,
            "created_at": "2025-02-06 11:35:03"
        }
    },
    {
        "model": "repository.station",
        "pk": 238,
        "fields": {
            "code": "MKSM",
            "network": "IA",
            "name": "Muara-Sahung",
            "latitude": "-4.57103",
            "longitude": "103.360268",
            "elevation": null,
            "created_at": "2025-02-06 11:35:03"
        }
    },
    {
        "model": "repository.station",
        "pk": 239,
        "fields": {
            "code": "MLJI",
            "network": "IA",
            "name": "Malang",
            "latitude": "-8.1575",
            "longitude": "112.4467",
            "elevation": null,
            "created_at": "2025-02-06 11:35:03"
        }
    },
    {
        "model": "repository.station",
        "pk": 240,
        "fields": {
            "code": "MLJM",
            "network": "IA",
            "name": "Mantup",
            "latitude": "-7.2483",
            "longitude": "112.3379",
            "elevation": null,
            "created_at": "2025-02-06 11:35:03"
        }
    },
    {
        "model": "repository.station",
        "pk": 241,
        "fields": {
            "code": "MLMMI",
            "network": "IA",
            "name": "MoaLakor",
            "latitude": "-8.148",
            "longitude": "127.792",
            "elevation": null,
            "created_at": "2025-02-06 11:35:03"
        }
    },
    {
        "model": "repository.station",
        "pk": 242,
        "fields": {
            "code": "MMCI",
            "network": "IA",
            "name": "Mamasa",
            "latitude": "-2.9556",
            "longitude": "119.3628",
            "elevation": null,
            "created_at": "2025-02-06 11:35:03"
        }
    },
    {
        "model": "repository.station",
        "pk": 243,
        "fields": {
            "code": "MMRI",
            "network": "IA",
            "name": "Maumere",
            "latitude": "-8.6357",
            "longitude": "122.2376",
            "elevation": null,
            "created_at": "2025-02-06 11:35:03"
        }
    },
    {
        "model": "repository.station",
        "pk": 244,
        "fields": {
            "code": "MMSI",
            "network": "IA",
            "name": "Mamuju",
            "latitude": "-2.6892",
            "longitude": "118.909",
            "elevation": null,
            "created_at": "2025-02-06 11:35:03"
        }
    },
    {
        "model": "repository.station",
        "pk": 245,
        "fields": {
            "code": "MNAI",
            "network": "IA",
            "name": "Manna",
            "latitude": "-4.3605",
            "longitude": "102.9557",
            "elevation": null,
            "created_at": "2025-02-06 11:35:03"
        }
    },
    {
        "model": "repository.station",
        "pk": 246,
        "fields": {
            "code": "MNI",
            "network": "IA",
            "name": "Manado",
            "latitude": "1.444",
            "longitude": "124.84",
            "elevation": null,
            "created_at": "2025-02-06 11:35:03"
        }
    },
    {
        "model": "repository.station",
        "pk": 247,
        "fields": {
            "code": "MNSI",
            "network": "IA",
            "name": "Mandailing-Natal",
            "latitude": "0.7955",
            "longitude": "99.5796",
            "elevation": null,
            "created_at": "2025-02-06 11:35:03"
        }
    },
    {
        "model": "repository.station",
        "pk": 248,
        "fields": {
            "code": "MPSI",
            "network": "IA",
            "name": "Mapaga",
            "latitude": "0.3374",
            "longitude": "119.898",
            "elevation": null,
            "created_at": "2025-02-06 11:35:03"
        }
    },
    {
        "model": "repository.station",
        "pk": 249,
        "fields": {
            "code": "MPSM",
            "network": "IA",
            "name": "Mapat-Tunggul",
            "latitude": "0.5892",
            "longitude": "100.1384",
            "elevation": null,
            "created_at": "2025-02-06 11:35:03"
        }
    },
    {
        "model": "repository.station",
        "pk": 250,
        "fields": {
            "code": "MRSI",
            "network": "IA",
            "name": "Marisa",
            "latitude": "0.4771",
            "longitude": "121.9406",
            "elevation": null,
            "created_at": "2025-02-06 11:35:03"
        }
    },
    {
        "model": "repository.station",
        "pk": 251,
        "fields": {
            "code": "MSAI",
            "network": "IA",
            "name": "Amahai",
            "latitude": "-3.3462",
            "longitude": "128.9285",
            "elevation": null,
            "created_at": "2025-02-06 11:35:03"
        }
    },
    {
        "model": "repository.station",
        "pk": 252,
        "fields": {
            "code": "MSCM",
            "network": "IA",
            "name": "Masamba",
            "latitude": "-2.534",
            "longitude": "120.332",
            "elevation": null,
            "created_at": "2025-02-06 11:35:03"
        }
    },
    {
        "model": "repository.station",
        "pk": 253,
        "fields": {
            "code": "MSHHI",
            "network": "IA",
            "name": "Maba Selatan",
            "latitude": "0.629",
            "longitude": "128.425",
            "elevation": null,
            "created_at": "2025-02-06 11:35:03"
        }
    },
    {
        "model": "repository.station",
        "pk": 254,
        "fields": {
            "code": "MTAI",
            "network": "IA",
            "name": "Morotai",
            "latitude": "2.198",
            "longitude": "128.2758",
            "elevation": null,
            "created_at": "2025-02-06 11:35:03"
        }
    },
    {
        "model": "repository.station",
        "pk": 255,
        "fields": {
            "code": "MTCM",
            "network": "IA",
            "name": "Malili",
            "latitude": "-2.61",
            "longitude": "121.118",
            "elevation": null,
            "created_at": "2025-02-06 11:35:03"
        }
    },
    {
        "model": "repository.station",
        "pk": 256,
        "fields": {
            "code": "MTJPI",
            "network": "IA",
            "name": "MuaraTami",
            "latitude": "-2.627",
            "longitude": "140.864",
            "elevation": null,
            "created_at": "2025-02-06 11:35:03"
        }
    },
    {
        "model": "repository.station",
        "pk": 257,
        "fields": {
            "code": "MTKI",
            "network": "IA",
            "name": "Muara-Teweh",
            "latitude": "-0.9418",
            "longitude": "114.8959",
            "elevation": null,
            "created_at": "2025-02-06 11:35:03"
        }
    },
    {
        "model": "repository.station",
        "pk": 258,
        "fields": {
            "code": "MTMPI",
            "network": "IA",
            "name": "MamberamoTengah",
            "latitude": "-2.305",
            "longitude": "138.037",
            "elevation": null,
            "created_at": "2025-02-06 11:35:03"
        }
    },
    {
        "model": "repository.station",
        "pk": 259,
        "fields": {
            "code": "MTMTI",
            "network": "IA",
            "name": "Malaka Tengah",
            "latitude": "-9.585",
            "longitude": "124.875",
            "elevation": null,
            "created_at": "2025-02-06 11:35:03"
        }
    },
    {
        "model": "repository.station",
        "pk": 260,
        "fields": {
            "code": "MTSI",
            "network": "IA",
            "name": "Manduamas",
            "latitude": "2.1527",
            "longitude": "98.2527",
            "elevation": null,
            "created_at": "2025-02-06 11:35:03"
        }
    },
    {
        "model": "repository.station",
        "pk": 261,
        "fields": {
            "code": "MTSM",
            "network": "IA",
            "name": "Muara-Dua",
            "latitude": "-4.3053",
            "longitude": "103.509",
            "elevation": null,
            "created_at": "2025-02-06 11:35:03"
        }
    },
    {
        "model": "repository.station",
        "pk": 262,
        "fields": {
            "code": "MUMUI",
            "network": "IA",
            "name": "Mangoli Utara",
            "latitude": "-1.785",
            "longitude": "125.481",
            "elevation": null,
            "created_at": "2025-02-06 11:35:03"
        }
    },
    {
        "model": "repository.station",
        "pk": 263,
        "fields": {
            "code": "MUTSI",
            "network": "IA",
            "name": "Muara",
            "latitude": "2.300",
            "longitude": "98.965",
            "elevation": null,
            "created_at": "2025-02-06 11:35:03"
        }
    },
    {
        "model": "repository.station",
        "pk": 264,
        "fields": {
            "code": "MWPI",
            "network": "IA",
            "name": "Manokwari",
            "latitude": "-0.9258",
            "longitude": "134.0431",
            "elevation": null,
            "created_at": "2025-02-06 11:35:03"
        }
    },
    {
        "model": "repository.station",
        "pk": 265,
        "fields": {
            "code": "NANFI",
            "network": "IA",
            "name": "Nangaroro",
            "latitude": "-8.761",
            "longitude": "121.302",
            "elevation": null,
            "created_at": "2025-02-06 11:35:03"
        }
    },
    {
        "model": "repository.station",
        "pk": 266,
        "fields": {
            "code": "NBMI",
            "network": "IA",
            "name": "Namrole",
            "latitude": "-3.7113",
            "longitude": "126.419",
            "elevation": null,
            "created_at": "2025-02-06 11:35:03"
        }
    },
    {
        "model": "repository.station",
        "pk": 267,
        "fields": {
            "code": "NBPI",
            "network": "IA",
            "name": "Nabire",
            "latitude": "-3.3656",
            "longitude": "135.4972",
            "elevation": null,
            "created_at": "2025-02-06 11:35:03"
        }
    },
    {
        "model": "repository.station",
        "pk": 268,
        "fields": {
            "code": "NGJI",
            "network": "IA",
            "name": "Ngawi",
            "latitude": "-7.3676",
            "longitude": "111.4612",
            "elevation": null,
            "created_at": "2025-02-06 11:35:03"
        }
    },
    {
        "model": "repository.station",
        "pk": 269,
        "fields": {
            "code": "NJBM",
            "network": "IA",
            "name": "Negara",
            "latitude": "-8.3099",
            "longitude": "114.6171",
            "elevation": null,
            "created_at": "2025-02-06 11:35:03"
        }
    },
    {
        "model": "repository.station",
        "pk": 270,
        "fields": {
            "code": "NKBI",
            "network": "IA",
            "name": "Nusa-Penida",
            "latitude": "-8.726115",
            "longitude": "115.5259633",
            "elevation": null,
            "created_at": "2025-02-06 11:35:03"
        }
    },
    {
        "model": "repository.station",
        "pk": 271,
        "fields": {
            "code": "NKKI",
            "network": "IA",
            "name": "Nanga-Tayap",
            "latitude": "-1.56",
            "longitude": "110.5666",
            "elevation": null,
            "created_at": "2025-02-06 11:35:03"
        }
    },
    {
        "model": "repository.station",
        "pk": 272,
        "fields": {
            "code": "NSBMM",
            "network": "IA",
            "name": "Seram-Barat",
            "latitude": "-3.0828",
            "longitude": "128.2096",
            "elevation": null,
            "created_at": "2025-02-06 11:35:03"
        }
    },
    {
        "model": "repository.station",
        "pk": 273,
        "fields": {
            "code": "OBMI",
            "network": "IA",
            "name": "Pulau-Obi",
            "latitude": "-1.3414",
            "longitude": "127.6444",
            "elevation": null,
            "created_at": "2025-02-06 11:35:03"
        }
    },
    {
        "model": "repository.station",
        "pk": 274,
        "fields": {
            "code": "OBMPI",
            "network": "IA",
            "name": "Obaa",
            "latitude": "-6.555",
            "longitude": "139.300",
            "elevation": null,
            "created_at": "2025-02-06 11:35:03"
        }
    },
    {
        "model": "repository.station",
        "pk": 275,
        "fields": {
            "code": "OMBFM",
            "network": "IA",
            "name": "Komodo",
            "latitude": "-8.691",
            "longitude": "119.8247",
            "elevation": null,
            "created_at": "2025-02-06 11:35:03"
        }
    },
    {
        "model": "repository.station",
        "pk": 276,
        "fields": {
            "code": "ONSM",
            "network": "IA",
            "name": "Onan-Ganjang",
            "latitude": "2.1598",
            "longitude": "98.63",
            "elevation": null,
            "created_at": "2025-02-06 11:35:03"
        }
    },
    {
        "model": "repository.station",
        "pk": 277,
        "fields": {
            "code": "PAASI",
            "network": "IA",
            "name": "Pulo Aceh",
            "latitude": "5.671",
            "longitude": "95.129",
            "elevation": null,
            "created_at": "2025-02-06 11:35:03"
        }
    },
    {
        "model": "repository.station",
        "pk": 278,
        "fields": {
            "code": "PABI",
            "network": "IA",
            "name": "Pasaman",
            "latitude": "0.1241",
            "longitude": "99.8719",
            "elevation": null,
            "created_at": "2025-02-06 11:35:03"
        }
    },
    {
        "model": "repository.station",
        "pk": 279,
        "fields": {
            "code": "PABKI",
            "network": "IA",
            "name": "Paramasan",
            "latitude": "-3.112172",
            "longitude": "115.364220",
            "elevation": null,
            "created_at": "2025-02-06 11:35:03"
        }
    },
    {
        "model": "repository.station",
        "pk": 280,
        "fields": {
            "code": "PAFM",
            "network": "IA",
            "name": "Pantar-Tengah",
            "latitude": "-8.3832",
            "longitude": "124.1283",
            "elevation": null,
            "created_at": "2025-02-06 11:35:03"
        }
    },
    {
        "model": "repository.station",
        "pk": 281,
        "fields": {
            "code": "PAKI",
            "network": "IA",
            "name": "Paser",
            "latitude": "-1.909218",
            "longitude": "116.19141",
            "elevation": null,
            "created_at": "2025-02-06 11:35:03"
        }
    },
    {
        "model": "repository.station",
        "pk": 282,
        "fields": {
            "code": "PASJI",
            "network": "IA",
            "name": "Padarincang",
            "latitude": "-6.2120",
            "longitude": "105.9835",
            "elevation": null,
            "created_at": "2025-02-06 11:35:03"
        }
    },